{"code": 200, "data": [{"location": "United States", "latitude": 37.09024, "longitude": -95.712891, "confirmed": 311616, "dead": 8489, "recovered": 14943, "updated": "2020-04-05 05:00:24.891897+00:00"}, {"location": "Jordan", "latitude": 30.585164, "longitude": 36.238414, "confirmed": 323, "dead": 5, "recovered": 74, "updated": "2020-04-05 05:00:28.750926+00:00"}, {"location": "Niger", "latitude": 17.607789, "longitude": 8.081666, "confirmed": 144, "dead": 8, "recovered": 0, "updated": "2020-04-05 05:00:29.800375+00:00"}, {"location": "Madagascar", "latitude": -18.766947, "longitude": 46.869107, "confirmed": 70, "dead": 0, "recovered": 0, "updated": "2020-04-05 05:00:30.540481+00:00"}, {"location": "El Salvador", "latitude": 13.794185, "longitude": -88.89653, "confirmed": 62, "dead": 3, "recovered": 2, "updated": "2020-04-05 05:00:30.722624+00:00"}, {"location": "Togo", "latitude": 8.619543, "longitude": 0.824782, "confirmed": 41, "dead": 3, "recovered": 18, "updated": "2020-04-05 05:00:31.077307+00:00"}, {"location": "Eswatini", "latitude": -26.522503, "longitude": 31.465866, "confirmed": 9, "dead": 0, "recovered": 0, "updated": "2020-04-05 05:00:32.728940+00:00"}, {"location": "Spain", "latitude": 40.463667, "longitude": -3.74922, "confirmed": 126168, "dead": 11947, "recovered": 34219, "updated": "2020-04-05 05:00:24.932980+00:00"}, {"location": "Italy", "latitude": 41.87194, "longitude": 12.56738, "confirmed": 124632, "dead": 15362, "recovered": 20996, "updated": "2020-04-05 05:00:24.974299+00:00"}, {"location": "Iran", "latitude": 32.427908, "longitude": 53.688046, "confirmed": 55743, "dead": 3452, "recovered": 19736, "updated": "2020-04-05 05:00:25.163573+00:00"}, {"location": "Belgium", "latitude": 50.503887, "longitude": 4.469936, "confirmed": 18431, "dead": 1283, "recovered": 3247, "updated": "2020-04-05 05:00:25.336303+00:00"}, {"location": "Netherlands", "latitude": 52.132633, "longitude": 5.291266, "confirmed": 16627, "dead": 1651, "recovered": 250, "updated": "2020-04-05 05:00:25.378247+00:00"}, {"location": "Austria", "latitude": 47.516231, "longitude": 14.550072, "confirmed": 11781, "dead": 186, "recovered": 2507, "updated": "2020-04-05 05:00:25.480168+00:00"}, {"location": "Australia", "latitude": -25.274398, "longitude": 133.775136, "confirmed": 5635, "dead": 34, "recovered": 636, "updated": "2020-04-05 05:00:25.736764+00:00"}, {"location": "Northern Mariana Islands", "latitude": 15.0979, "longitude": 145.6739, "confirmed": 8, "dead": 1, "recovered": 0, "updated": "2020-04-05 05:00:32.982337+00:00"}, {"location": "Colombia", "latitude": 4.570868, "longitude": -74.297333, "confirmed": 1406, "dead": 32, "recovered": 85, "updated": "2020-04-05 05:00:26.993726+00:00"}, {"location": "Turks and Caicos Islands", "latitude": 21.694025, "longitude": -71.797928, "confirmed": 5, "dead": 0, "recovered": 0, "updated": "2020-04-05 05:00:33.372028+00:00"}, {"location": "Malawi", "latitude": -13.254308, "longitude": 34.301525, "confirmed": 4, "dead": 0, "recovered": 0, "updated": "2020-04-05 05:00:33.537308+00:00"}, {"location": "Donetsk People's Republic", "latitude": 48.015883, "longitude": 37.80285, "confirmed": 3, "dead": 0, "recovered": 0, "updated": "2020-04-05 05:00:33.713184+00:00"}, {"location": "Luhansk People's Republic", "latitude": 48.574041, "longitude": 39.307815, "confirmed": 1, "dead": 0, "recovered": 0, "updated": "2020-04-05 05:00:33.823782+00:00"}, {"location": "Qatar", "latitude": 25.354826, "longitude": 51.183884, "confirmed": 1325, "dead": 3, "recovered": 109, "updated": "2020-04-05 05:00:27.040943+00:00"}, {"location": "Algeria", "latitude": 28.033886, "longitude": 1.659626, "confirmed": 1251, "dead": 130, "recovered": 90, "updated": "2020-04-05 05:00:27.088872+00:00"}, {"location": "Bosnia and Herzegovina", "latitude": 43.915886, "longitude": 17.679076, "confirmed": 624, "dead": 21, "recovered": 30, "updated": "2020-04-05 05:00:27.880559+00:00"}, {"location": "North Macedonia", "latitude": 41.608635, "longitude": 21.745275, "confirmed": 483, "dead": 17, "recovered": 20, "updated": "2020-04-05 05:00:28.236344+00:00"}, {"location": "Abkhazia", "latitude": 43.0015544, "longitude": 41.023407, "confirmed": 1, "dead": 0, "recovered": 0, "updated": "2020-04-04 14:20:15.168554+00:00"}, {"location": "Costa Rica", "latitude": 9.748917, "longitude": -83.753428, "confirmed": 435, "dead": 2, "recovered": 13, "updated": "2020-04-05 05:00:28.490214+00:00"}, {"location": "Russia", "latitude": 61.52401, "longitude": 105.318756, "confirmed": 4731, "dead": 43, "recovered": 333, "updated": "2020-04-05 05:00:25.824019+00:00"}, {"location": "Chile", "latitude": -35.675147, "longitude": -71.542969, "confirmed": 4161, "dead": 27, "recovered": 528, "updated": "2020-04-05 05:00:25.952580+00:00"}, {"location": "Poland", "latitude": 51.919438, "longitude": 19.145136, "confirmed": 3627, "dead": 79, "recovered": 116, "updated": "2020-04-05 05:00:26.036662+00:00"}, {"location": "Romania", "latitude": 45.943161, "longitude": 24.96676, "confirmed": 3613, "dead": 146, "recovered": 329, "updated": "2020-04-05 05:00:26.078046+00:00"}, {"location": "Ecuador", "latitude": -1.831239, "longitude": -78.183406, "confirmed": 3465, "dead": 318, "recovered": 100, "updated": "2020-04-05 05:00:26.161368+00:00"}, {"location": "Gabon", "latitude": -0.803689, "longitude": 11.609444, "confirmed": 21, "dead": 1, "recovered": 1, "updated": "2020-04-05 05:00:31.545761+00:00"}, {"location": "Guinea-Bissau", "latitude": 11.803749, "longitude": -15.180413, "confirmed": 18, "dead": 0, "recovered": 0, "updated": "2020-04-05 05:00:31.760627+00:00"}, {"location": "Benin", "latitude": 9.30769, "longitude": 2.315834, "confirmed": 16, "dead": 0, "recovered": 2, "updated": "2020-04-05 05:00:31.875268+00:00"}, {"location": "Antigua and Barbuda", "latitude": 17.060816, "longitude": -61.796428, "confirmed": 15, "dead": 0, "recovered": 0, "updated": "2020-04-05 05:00:31.998321+00:00"}, {"location": "Seychelles", "latitude": -4.679574, "longitude": 55.491977, "confirmed": 10, "dead": 0, "recovered": 0, "updated": "2020-04-05 05:00:32.562710+00:00"}, {"location": "Suriname", "latitude": 3.919305, "longitude": -56.027783, "confirmed": 10, "dead": 1, "recovered": 3, "updated": "2020-04-05 05:00:32.640126+00:00"}, {"location": "Saint Kitts and Nevis", "latitude": 17.357822, "longitude": -62.782998, "confirmed": 9, "dead": 0, "recovered": 0, "updated": "2020-04-05 05:00:32.817733+00:00"}, {"location": "Vatican City", "latitude": 41.902916, "longitude": 12.453389, "confirmed": 7, "dead": 0, "recovered": 0, "updated": "2020-04-05 05:00:33.139138+00:00"}, {"location": "Belize", "latitude": 17.189877, "longitude": -88.49765, "confirmed": 4, "dead": 0, "recovered": 0, "updated": "2020-04-05 05:00:33.407804+00:00"}, {"location": "Botswana", "latitude": -22.328474, "longitude": 24.684866, "confirmed": 4, "dead": 1, "recovered": 0, "updated": "2020-04-05 05:00:33.445657+00:00"}, {"location": "East Timor", "latitude": -8.874217, "longitude": 125.727539, "confirmed": 1, "dead": 0, "recovered": 0, "updated": "2020-04-05 05:00:33.777201+00:00"}, {"location": "Japan", "latitude": 36.204824, "longitude": 138.252924, "confirmed": 3139, "dead": 77, "recovered": 514, "updated": "2020-04-05 05:00:26.283422+00:00"}, {"location": "Pakistan", "latitude": 30.375321, "longitude": 69.345116, "confirmed": 2818, "dead": 41, "recovered": 131, "updated": "2020-04-05 05:00:26.332593+00:00"}, {"location": "Armenia", "latitude": 40.069099, "longitude": 45.038189, "confirmed": 770, "dead": 7, "recovered": 43, "updated": "2020-04-05 05:00:27.691707+00:00"}, {"location": "Hungary", "latitude": 47.162494, "longitude": 19.5033041, "confirmed": 678, "dead": 32, "recovered": 58, "updated": "2020-04-05 05:00:27.821404+00:00"}, {"location": "Kuwait", "latitude": 29.31166, "longitude": 47.481766, "confirmed": 479, "dead": 1, "recovered": 93, "updated": "2020-04-05 05:00:28.275989+00:00"}, {"location": "Taiwan", "latitude": 23.69781, "longitude": 120.960515, "confirmed": 355, "dead": 5, "recovered": 50, "updated": "2020-04-05 05:00:28.638088+00:00"}, {"location": "Afghanistan", "latitude": 33.93911, "longitude": 67.709953, "confirmed": 299, "dead": 7, "recovered": 10, "updated": "2020-04-05 05:00:28.829225+00:00"}, {"location": "Venezuela", "latitude": 6.42375, "longitude": -66.58973, "confirmed": 155, "dead": 7, "recovered": 52, "updated": "2020-04-05 05:00:29.643142+00:00"}, {"location": "Cambodia", "latitude": 12.565679, "longitude": 104.990963, "confirmed": 114, "dead": 0, "recovered": 50, "updated": "2020-04-05 05:00:30.135603+00:00"}, {"location": "Rwanda", "latitude": -1.940278, "longitude": 29.873888, "confirmed": 102, "dead": 0, "recovered": 0, "updated": "2020-04-05 05:00:30.302920+00:00"}, {"location": "Republic of the Congo", "latitude": -0.228021, "longitude": 15.827659, "confirmed": 45, "dead": 5, "recovered": 2, "updated": "2020-04-05 05:00:30.968737+00:00"}, {"location": "Iraq", "latitude": 33.223191, "longitude": 43.679291, "confirmed": 878, "dead": 56, "recovered": 259, "updated": "2020-04-05 05:00:27.526428+00:00"}, {"location": "Bahrain", "latitude": 26.0667, "longitude": 50.5577, "confirmed": 688, "dead": 4, "recovered": 423, "updated": "2020-04-05 05:00:27.784035+00:00"}, {"location": "Aruba", "latitude": 12.52111, "longitude": -69.968338, "confirmed": 64, "dead": 0, "recovered": 1, "updated": "2020-04-05 05:00:30.622060+00:00"}, {"location": "South Korea", "latitude": 35.907757, "longitude": 127.766922, "confirmed": 10237, "dead": 183, "recovered": 6463, "updated": "2020-04-05 05:00:25.605761+00:00"}, {"location": "Philippines", "latitude": 12.879721, "longitude": 121.774017, "confirmed": 3094, "dead": 144, "recovered": 57, "updated": "2020-04-05 05:00:26.204741+00:00"}, {"location": "India", "latitude": 20.593684, "longitude": 78.96288, "confirmed": 3588, "dead": 99, "recovered": 267, "updated": "2020-04-05 05:00:26.242391+00:00"}, {"location": "Bermuda", "latitude": 32.3078, "longitude": -64.7505, "confirmed": 37, "dead": 0, "recovered": 14, "updated": "2020-04-05 05:00:31.261592+00:00"}, {"location": "Cayman Islands", "latitude": 19.3133, "longitude": -81.2546, "confirmed": 35, "dead": 1, "recovered": 1, "updated": "2020-04-05 05:00:31.289688+00:00"}, {"location": "Libya", "latitude": 26.3351, "longitude": 17.228331, "confirmed": 18, "dead": 1, "recovered": 0, "updated": "2020-04-05 05:00:31.805950+00:00"}, {"location": "Cura\u00e7ao", "latitude": 12.16957, "longitude": -68.99002, "confirmed": 11, "dead": 1, "recovered": 5, "updated": "2020-04-05 05:00:32.316739+00:00"}, {"location": "Luxembourg", "latitude": 49.815273, "longitude": 6.129583, "confirmed": 2729, "dead": 31, "recovered": 500, "updated": "2020-04-05 05:00:26.371529+00:00"}, {"location": "St. Vincent & the Grenadines", "latitude": 12.984305, "longitude": -61.287228, "confirmed": 7, "dead": 0, "recovered": 1, "updated": "2020-04-05 05:00:33.058986+00:00"}, {"location": "Montserrat", "latitude": 16.742498, "longitude": -62.187366, "confirmed": 6, "dead": 0, "recovered": 0, "updated": "2020-04-05 05:00:33.259539+00:00"}, {"location": "Sierra Leone", "latitude": 8.460555, "longitude": -11.779889, "confirmed": 4, "dead": 0, "recovered": 0, "updated": "2020-04-05 05:00:33.576947+00:00"}, {"location": "British Virgin Islands", "latitude": 18.420695, "longitude": -64.639968, "confirmed": 3, "dead": 0, "recovered": 0, "updated": "2020-04-05 05:00:33.646848+00:00"}, {"location": "Thailand", "latitude": 15.870032, "longitude": 100.992541, "confirmed": 2169, "dead": 23, "recovered": 674, "updated": "2020-04-05 05:00:26.493652+00:00"}, {"location": "Panama", "latitude": 8.537981, "longitude": -80.782127, "confirmed": 1801, "dead": 46, "recovered": 13, "updated": "2020-04-05 05:00:26.614748+00:00"}, {"location": "Greece", "latitude": 39.074208, "longitude": 21.824312, "confirmed": 1673, "dead": 68, "recovered": 78, "updated": "2020-04-05 05:00:26.707578+00:00"}, {"location": "South Africa", "latitude": -30.559482, "longitude": 22.937506, "confirmed": 1585, "dead": 9, "recovered": 95, "updated": "2020-04-05 05:01:26.973459+00:00"}, {"location": "Serbia", "latitude": 44.016521, "longitude": 21.005859, "confirmed": 1624, "dead": 44, "recovered": 54, "updated": "2020-04-05 05:00:26.751150+00:00"}, {"location": "Dominican Republic", "latitude": 18.735693, "longitude": -70.162651, "confirmed": 1578, "dead": 77, "recovered": 17, "updated": "2020-04-05 05:00:26.832505+00:00"}, {"location": "Iceland", "latitude": 64.963051, "longitude": -19.020835, "confirmed": 1417, "dead": 4, "recovered": 396, "updated": "2020-04-05 05:00:26.954183+00:00"}, {"location": "Singapore", "latitude": 1.352083, "longitude": 103.819836, "confirmed": 1189, "dead": 6, "recovered": 297, "updated": "2020-04-05 05:00:27.175447+00:00"}, {"location": "Croatia", "latitude": 45.1, "longitude": 15.2000001, "confirmed": 1126, "dead": 12, "recovered": 119, "updated": "2020-04-05 05:00:27.218703+00:00"}, {"location": "Egypt", "latitude": 26.820553, "longitude": 30.802498, "confirmed": 1070, "dead": 71, "recovered": 241, "updated": "2020-04-05 05:00:27.258602+00:00"}, {"location": "Slovenia", "latitude": 46.151241, "longitude": 14.995463, "confirmed": 977, "dead": 22, "recovered": 79, "updated": "2020-04-05 05:00:27.434494+00:00"}, {"location": "Zimbabwe", "latitude": -19.015438, "longitude": 29.154857, "confirmed": 9, "dead": 1, "recovered": 0, "updated": "2020-04-05 05:00:32.864874+00:00"}, {"location": "United Arab Emirates", "latitude": 23.424076, "longitude": 53.847818, "confirmed": 1505, "dead": 10, "recovered": 125, "updated": "2020-04-05 05:00:26.871317+00:00"}, {"location": "Burundi", "latitude": -3.373056, "longitude": 29.918886, "confirmed": 3, "dead": 0, "recovered": 0, "updated": "2020-04-05 05:00:33.674739+00:00"}, {"location": "Moldova", "latitude": 47.411631, "longitude": 28.369885, "confirmed": 752, "dead": 12, "recovered": 29, "updated": "2020-04-05 05:00:27.740137+00:00"}, {"location": "Kazakhstan", "latitude": 48.019573, "longitude": 66.923684, "confirmed": 531, "dead": 5, "recovered": 36, "updated": "2020-04-05 05:00:28.015694+00:00"}, {"location": "Lebanon", "latitude": 33.854721, "longitude": 35.862285, "confirmed": 520, "dead": 17, "recovered": 54, "updated": "2020-04-05 05:00:28.101780+00:00"}, {"location": "Burkina Faso", "latitude": 12.238333, "longitude": -1.561593, "confirmed": 318, "dead": 16, "recovered": 66, "updated": "2020-04-05 05:00:28.789135+00:00"}, {"location": "San Marino", "latitude": 43.94236, "longitude": 12.457777, "confirmed": 259, "dead": 32, "recovered": 27, "updated": "2020-04-05 05:00:29.042051+00:00"}, {"location": "Faroe Islands", "latitude": 61.892635, "longitude": -6.9118061, "confirmed": 181, "dead": 0, "recovered": 93, "updated": "2020-04-05 05:00:29.483423+00:00"}, {"location": "Guadeloupe", "latitude": 16.265, "longitude": -61.551, "confirmed": 134, "dead": 7, "recovered": 31, "updated": "2020-04-05 05:00:29.953631+00:00"}, {"location": "Kenya", "latitude": -0.023559, "longitude": 37.906193, "confirmed": 126, "dead": 4, "recovered": 4, "updated": "2020-04-05 05:00:30.095634+00:00"}, {"location": "Bangladesh", "latitude": 23.684994, "longitude": 90.356331, "confirmed": 70, "dead": 8, "recovered": 30, "updated": "2020-04-05 05:00:30.497742+00:00"}, {"location": "Monaco", "latitude": 43.7384176, "longitude": 7.4246158, "confirmed": 66, "dead": 1, "recovered": 3, "updated": "2020-04-05 05:00:30.579438+00:00"}, {"location": "French Guiana", "latitude": 3.933889, "longitude": -53.125782, "confirmed": 61, "dead": 0, "recovered": 22, "updated": "2020-04-05 05:00:30.694216+00:00"}, {"location": "Eritrea", "latitude": 15.179384, "longitude": 39.782334, "confirmed": 29, "dead": 0, "recovered": 0, "updated": "2020-04-05 05:00:31.317802+00:00"}, {"location": "Sint Maarten", "latitude": 18.04248, "longitude": -63.05483, "confirmed": 25, "dead": 4, "recovered": 6, "updated": "2020-04-05 05:00:31.512981+00:00"}, {"location": "Haiti", "latitude": 18.971187, "longitude": -72.285215, "confirmed": 21, "dead": 0, "recovered": 1, "updated": "2020-04-05 05:00:31.587611+00:00"}, {"location": "Fiji", "latitude": -17.713371, "longitude": 178.065032, "confirmed": 12, "dead": 0, "recovered": 0, "updated": "2020-04-05 05:00:32.229291+00:00"}, {"location": "Greenland", "latitude": 71.706936, "longitude": -42.604303, "confirmed": 11, "dead": 0, "recovered": 4, "updated": "2020-04-05 05:00:32.345304+00:00"}, {"location": "Laos", "latitude": 19.85627, "longitude": 102.495496, "confirmed": 10, "dead": 0, "recovered": 0, "updated": "2020-04-05 05:00:32.424510+00:00"}, {"location": "Mozambique", "latitude": -18.665695, "longitude": 35.529562, "confirmed": 10, "dead": 0, "recovered": 1, "updated": "2020-04-05 05:00:32.521433+00:00"}, {"location": "Sudan", "latitude": 12.862807, "longitude": 30.217636, "confirmed": 10, "dead": 2, "recovered": 2, "updated": "2020-04-05 05:00:32.603201+00:00"}, {"location": "Angola", "latitude": -11.202692, "longitude": 17.873887, "confirmed": 10, "dead": 2, "recovered": 2, "updated": "2020-04-05 05:00:32.380884+00:00"}, {"location": "Liberia", "latitude": 6.428055, "longitude": -9.429499, "confirmed": 10, "dead": 1, "recovered": 3, "updated": "2020-04-05 05:00:32.477905+00:00"}, {"location": "Chad", "latitude": 15.454166, "longitude": 18.732207, "confirmed": 9, "dead": 0, "recovered": 0, "updated": "2020-04-05 05:00:32.690303+00:00"}, {"location": "Nepal", "latitude": 28.394857, "longitude": 84.124008, "confirmed": 9, "dead": 0, "recovered": 1, "updated": "2020-04-05 05:00:32.765470+00:00"}, {"location": "Germany", "latitude": 51.165691, "longitude": 10.451526, "confirmed": 96108, "dead": 1446, "recovered": 26400, "updated": "2020-04-05 05:00:25.018424+00:00"}, {"location": "\u00c5land Islands", "latitude": 60.1785247, "longitude": 19.9156105, "confirmed": 8, "dead": 0, "recovered": 0, "updated": "2020-04-05 05:00:32.908289+00:00"}, {"location": "Central African Republic", "latitude": 6.611111, "longitude": 20.939444, "confirmed": 8, "dead": 0, "recovered": 0, "updated": "2020-04-05 05:00:32.936616+00:00"}, {"location": "Cape Verde", "latitude": 16.5388, "longitude": -23.0418, "confirmed": 7, "dead": 1, "recovered": 0, "updated": "2020-04-05 05:00:33.017121+00:00"}, {"location": "France", "latitude": 46.227638, "longitude": 2.213749, "confirmed": 89953, "dead": 7560, "recovered": 15438, "updated": "2020-04-05 05:00:25.063516+00:00"}, {"location": "United Kingdom", "latitude": 55.378051, "longitude": -3.435973, "confirmed": 41903, "dead": 4313, "recovered": 135, "updated": "2020-04-05 05:00:25.205152+00:00"}, {"location": "Switzerland", "latitude": 46.818188, "longitude": 8.227512, "confirmed": 20505, "dead": 666, "recovered": 6415, "updated": "2020-04-05 05:00:25.294876+00:00"}, {"location": "Brazil", "latitude": -14.235004, "longitude": -51.92528, "confirmed": 10360, "dead": 445, "recovered": 127, "updated": "2020-04-05 05:00:25.562488+00:00"}, {"location": "Israel", "latitude": 31.046051, "longitude": 34.851612, "confirmed": 7851, "dead": 44, "recovered": 427, "updated": "2020-04-05 05:00:25.653586+00:00"}, {"location": "Sweden", "latitude": 60.128161, "longitude": 18.643501, "confirmed": 6558, "dead": 391, "recovered": 205, "updated": "2020-04-05 05:00:25.692603+00:00"}, {"location": "Ireland", "latitude": 53.1423672, "longitude": -7.6920536, "confirmed": 4604, "dead": 137, "recovered": 25, "updated": "2020-04-05 05:00:25.861331+00:00"}, {"location": "Gambia", "latitude": 13.443182, "longitude": -15.310139, "confirmed": 4, "dead": 1, "recovered": 2, "updated": "2020-04-05 05:00:33.488657+00:00"}, {"location": "Czech Republic", "latitude": 49.817492, "longitude": 15.472962, "confirmed": 4472, "dead": 59, "recovered": 78, "updated": "2020-04-05 05:00:25.908848+00:00"}, {"location": "Denmark", "latitude": 56.26392, "longitude": 9.501785, "confirmed": 4077, "dead": 161, "recovered": 1283, "updated": "2020-04-05 05:00:25.993051+00:00"}, {"location": "Malaysia", "latitude": 4.210484, "longitude": 101.975766, "confirmed": 3483, "dead": 57, "recovered": 915, "updated": "2020-04-05 05:00:26.118202+00:00"}, {"location": "Gibraltar", "latitude": 36.140751, "longitude": -5.353585, "confirmed": 98, "dead": 0, "recovered": 52, "updated": "2020-04-05 05:00:30.360756+00:00"}, {"location": "Guyana", "latitude": 4.860416, "longitude": -58.93018, "confirmed": 24, "dead": 4, "recovered": 0, "updated": "2020-04-05 05:00:31.470330+00:00"}, {"location": "Syria", "latitude": 34.802075, "longitude": 38.996815, "confirmed": 16, "dead": 2, "recovered": 2, "updated": "2020-04-05 05:00:31.957068+00:00"}, {"location": "Dominica", "latitude": 15.414999, "longitude": -61.370976, "confirmed": 14, "dead": 0, "recovered": 0, "updated": "2020-04-05 05:00:32.043556+00:00"}, {"location": "Saint Lucia", "latitude": 13.909444, "longitude": -60.978893, "confirmed": 14, "dead": 0, "recovered": 1, "updated": "2020-04-05 05:00:32.189254+00:00"}, {"location": "MS Zaandam & Rotterdam", "latitude": 0.0, "longitude": 0.0, "confirmed": 11, "dead": 2, "recovered": 0, "updated": "2020-04-05 05:00:32.374850+00:00"}, {"location": "China", "latitude": 25.6113971, "longitude": 85.1392247, "confirmed": 81669, "dead": 3329, "recovered": 76964, "updated": "2020-04-05 05:00:25.122219+00:00"}, {"location": "Morocco", "latitude": 31.791702, "longitude": -7.09262, "confirmed": 919, "dead": 59, "recovered": 66, "updated": "2020-04-05 05:00:27.487782+00:00"}, {"location": "Nicaragua", "latitude": 12.865416, "longitude": -85.207229, "confirmed": 5, "dead": 1, "recovered": 0, "updated": "2020-04-05 05:00:33.328562+00:00"}, {"location": "Somaliland", "latitude": 9.4117434, "longitude": 46.8252838, "confirmed": 2, "dead": 0, "recovered": 0, "updated": "2020-04-05 05:00:33.771268+00:00"}, {"location": "New Zealand", "latitude": -40.900557, "longitude": 174.885971, "confirmed": 1039, "dead": 1, "recovered": 156, "updated": "2020-04-05 05:00:27.569704+00:00"}, {"location": "Hong Kong", "latitude": 22.3193039, "longitude": 114.1693611, "confirmed": 862, "dead": 4, "recovered": 173, "updated": "2020-04-05 05:00:27.611770+00:00"}, {"location": "Lithuania", "latitude": 55.169438, "longitude": 23.881275, "confirmed": 771, "dead": 11, "recovered": 7, "updated": "2020-04-05 05:00:27.649357+00:00"}, {"location": "Uzbekistan", "latitude": 41.377491, "longitude": 64.585262, "confirmed": 266, "dead": 2, "recovered": 25, "updated": "2020-04-05 05:00:28.999249+00:00"}, {"location": "Ivory Coast", "latitude": 7.539989, "longitude": -5.54708, "confirmed": 245, "dead": 1, "recovered": 25, "updated": "2020-04-05 05:00:29.081332+00:00"}, {"location": "Palestine", "latitude": 31.952162, "longitude": 35.233154, "confirmed": 217, "dead": 1, "recovered": 21, "updated": "2020-04-05 05:00:29.209160+00:00"}, {"location": "Trinidad and Tobago", "latitude": 10.691803, "longitude": -61.222503, "confirmed": 103, "dead": 6, "recovered": 1, "updated": "2020-04-05 05:00:30.255827+00:00"}, {"location": "Djibouti", "latitude": 11.825138, "longitude": 42.590275, "confirmed": 50, "dead": 0, "recovered": 8, "updated": "2020-04-05 05:00:30.869636+00:00"}, {"location": "Uganda", "latitude": 1.373333, "longitude": 32.290275, "confirmed": 48, "dead": 0, "recovered": 0, "updated": "2020-04-05 05:00:30.909095+00:00"}, {"location": "Mali", "latitude": 17.570692, "longitude": -3.996166, "confirmed": 41, "dead": 3, "recovered": 1, "updated": "2020-04-05 05:00:31.037613+00:00"}, {"location": "Ethiopia", "latitude": 9.145, "longitude": 40.489673, "confirmed": 38, "dead": 0, "recovered": 4, "updated": "2020-04-05 05:00:31.220902+00:00"}, {"location": "Tanzania", "latitude": -6.369028, "longitude": 34.888822, "confirmed": 20, "dead": 1, "recovered": 3, "updated": "2020-04-05 05:00:31.662093+00:00"}, {"location": "Maldives", "latitude": 3.202778, "longitude": 73.22068, "confirmed": 19, "dead": 0, "recovered": 13, "updated": "2020-04-05 05:00:31.698483+00:00"}, {"location": "Equatorial Guinea", "latitude": 1.650801, "longitude": 10.267895, "confirmed": 16, "dead": 0, "recovered": 1, "updated": "2020-04-05 05:00:31.911756+00:00"}, {"location": "Mongolia", "latitude": 46.862496, "longitude": 103.846656, "confirmed": 14, "dead": 0, "recovered": 2, "updated": "2020-04-05 05:00:32.103207+00:00"}, {"location": "Somalia", "latitude": 5.152149, "longitude": 46.199616, "confirmed": 7, "dead": 0, "recovered": 1, "updated": "2020-04-05 05:00:33.098076+00:00"}, {"location": "Mauritania", "latitude": 21.00789, "longitude": -10.940835, "confirmed": 6, "dead": 1, "recovered": 2, "updated": "2020-04-05 05:00:33.180896+00:00"}, {"location": "Bhutan", "latitude": 27.514162, "longitude": 90.433601, "confirmed": 5, "dead": 0, "recovered": 2, "updated": "2020-04-05 05:00:33.291368+00:00"}, {"location": "Martinique", "latitude": 14.641528, "longitude": -61.024174, "confirmed": 145, "dead": 3, "recovered": 27, "updated": "2020-04-05 05:00:29.722536+00:00"}, {"location": "Turkey", "latitude": 38.963745, "longitude": 35.243322, "confirmed": 23934, "dead": 501, "recovered": 786, "updated": "2020-04-05 05:00:25.251140+00:00"}, {"location": "Mayotte", "latitude": -12.8275, "longitude": 45.166244, "confirmed": 134, "dead": 2, "recovered": 14, "updated": "2020-04-05 05:00:29.983404+00:00"}, {"location": "Anguilla", "latitude": 18.220554, "longitude": -63.068615, "confirmed": 3, "dead": 0, "recovered": 0, "updated": "2020-04-05 05:00:33.618254+00:00"}, {"location": "Sint Eustatius", "latitude": 17.4890306, "longitude": -62.973555, "confirmed": 2, "dead": 0, "recovered": 0, "updated": "2020-04-05 05:00:33.719318+00:00"}, {"location": "Papua New Guinea", "latitude": -6.314993, "longitude": 143.95555, "confirmed": 1, "dead": 0, "recovered": 0, "updated": "2020-04-05 05:00:33.829691+00:00"}, {"location": "Canada", "latitude": 56.130366, "longitude": -106.346771, "confirmed": 14000, "dead": 233, "recovered": 2603, "updated": "2020-04-05 05:00:25.429135+00:00"}, {"location": "Guinea", "latitude": 9.945587, "longitude": -9.696645, "confirmed": 111, "dead": 0, "recovered": 5, "updated": "2020-04-05 05:00:30.175606+00:00"}, {"location": "Portugal", "latitude": 39.399872, "longitude": -8.224454, "confirmed": 10524, "dead": 266, "recovered": 75, "updated": "2020-04-05 05:00:25.523376+00:00"}, {"location": "Guam", "latitude": 13.444304, "longitude": 144.793731, "confirmed": 93, "dead": 4, "recovered": 20, "updated": "2020-04-05 05:00:30.394075+00:00"}, {"location": "French Polynesia", "latitude": -17.679742, "longitude": -149.406843, "confirmed": 40, "dead": 0, "recovered": 1, "updated": "2020-04-05 05:00:31.121102+00:00"}, {"location": "U.S. Virgin Islands", "latitude": 18.335765, "longitude": -64.896335, "confirmed": 40, "dead": 0, "recovered": 34, "updated": "2020-04-05 05:00:31.155331+00:00"}, {"location": "Bahamas", "latitude": 25.03428, "longitude": -77.39628, "confirmed": 28, "dead": 4, "recovered": 0, "updated": "2020-04-05 05:00:31.359176+00:00"}, {"location": "Myanmar", "latitude": 21.916221, "longitude": 95.955974, "confirmed": 21, "dead": 1, "recovered": 0, "updated": "2020-04-05 05:00:31.625742+00:00"}, {"location": "New Caledonia", "latitude": -20.904305, "longitude": 165.618042, "confirmed": 18, "dead": 0, "recovered": 1, "updated": "2020-04-05 05:00:31.846474+00:00"}, {"location": "Norway", "latitude": 60.472024, "longitude": 8.468946, "confirmed": 5644, "dead": 62, "recovered": 32, "updated": "2020-04-05 05:00:25.774076+00:00"}, {"location": "Namibia", "latitude": -22.95764, "longitude": 18.49041, "confirmed": 14, "dead": 0, "recovered": 3, "updated": "2020-04-05 05:00:32.145447+00:00"}, {"location": "Saudi Arabia", "latitude": 23.885942, "longitude": 45.079162, "confirmed": 2370, "dead": 29, "recovered": 420, "updated": "2020-04-05 05:00:26.415844+00:00"}, {"location": "Grenada", "latitude": 12.1165, "longitude": -61.679, "confirmed": 12, "dead": 0, "recovered": 0, "updated": "2020-04-05 05:00:32.271721+00:00"}, {"location": "Indonesia", "latitude": -0.789275, "longitude": 113.921327, "confirmed": 2092, "dead": 191, "recovered": 150, "updated": "2020-04-05 05:00:26.457388+00:00"}, {"location": "Akrotiri and Dhekelia", "latitude": 34.5802786, "longitude": 32.9743145, "confirmed": 10, "dead": 0, "recovered": 0, "updated": "2020-04-05 05:00:32.418669+00:00"}, {"location": "Saint Barth\u00e9lemy", "latitude": 17.9, "longitude": -62.833333, "confirmed": 6, "dead": 0, "recovered": 1, "updated": "2020-04-05 05:00:33.227217+00:00"}, {"location": "Mexico", "latitude": 23.634501, "longitude": -102.552784, "confirmed": 1890, "dead": 79, "recovered": 634, "updated": "2020-04-05 05:00:26.531542+00:00"}, {"location": "Finland", "latitude": 61.92411, "longitude": 25.7481511, "confirmed": 1882, "dead": 25, "recovered": 300, "updated": "2020-04-05 05:00:26.571997+00:00"}, {"location": "Azerbaijan", "latitude": 40.143105, "longitude": 47.576927, "confirmed": 521, "dead": 5, "recovered": 32, "updated": "2020-04-05 05:00:28.056843+00:00"}, {"location": "Puerto Rico", "latitude": 18.220833, "longitude": -66.590149, "confirmed": 452, "dead": 18, "recovered": 0, "updated": "2020-04-05 05:00:28.418147+00:00"}, {"location": "R\u00e9union", "latitude": -21.115141, "longitude": 55.536384, "confirmed": 334, "dead": 0, "recovered": 40, "updated": "2020-04-05 05:00:28.677387+00:00"}, {"location": "Albania", "latitude": 41.153332, "longitude": 20.168331, "confirmed": 333, "dead": 20, "recovered": 99, "updated": "2020-04-05 05:00:28.710745+00:00"}, {"location": "Vietnam", "latitude": 14.058324, "longitude": 108.277199, "confirmed": 240, "dead": 0, "recovered": 90, "updated": "2020-04-05 05:00:29.129557+00:00"}, {"location": "Peru", "latitude": -9.189967, "longitude": -75.015152, "confirmed": 1746, "dead": 73, "recovered": 914, "updated": "2020-04-05 05:00:26.663158+00:00"}, {"location": "Argentina", "latitude": -38.416097, "longitude": -63.616672, "confirmed": 1451, "dead": 43, "recovered": 279, "updated": "2020-04-05 05:00:26.914801+00:00"}, {"location": "Ukraine", "latitude": 48.379433, "longitude": 31.1655799, "confirmed": 1225, "dead": 32, "recovered": 25, "updated": "2020-04-05 05:00:27.132197+00:00"}, {"location": "Estonia", "latitude": 58.595272, "longitude": 25.0136071, "confirmed": 1039, "dead": 13, "recovered": 59, "updated": "2020-04-05 05:00:27.336711+00:00"}, {"location": "Diamond Princess", "latitude": 40.8642959, "longitude": -73.9614914, "confirmed": 712, "dead": 12, "recovered": 619, "updated": "2020-04-05 05:00:27.778206+00:00"}, {"location": "Tunisia", "latitude": 33.886917, "longitude": 9.537499, "confirmed": 553, "dead": 19, "recovered": 5, "updated": "2020-04-05 05:00:27.974180+00:00"}, {"location": "Latvia", "latitude": 56.879635, "longitude": 24.603189, "confirmed": 509, "dead": 1, "recovered": 1, "updated": "2020-04-05 05:00:28.139827+00:00"}, {"location": "Bulgaria", "latitude": 42.733883, "longitude": 25.48583, "confirmed": 503, "dead": 17, "recovered": 34, "updated": "2020-04-05 05:00:28.176701+00:00"}, {"location": "Slovakia", "latitude": 48.669026, "longitude": 19.699024, "confirmed": 471, "dead": 1, "recovered": 10, "updated": "2020-04-05 05:00:28.332477+00:00"}, {"location": "Andorra", "latitude": 42.506285, "longitude": 1.521801, "confirmed": 466, "dead": 17, "recovered": 21, "updated": "2020-04-05 05:00:28.374672+00:00"}, {"location": "Uruguay", "latitude": -32.522779, "longitude": -55.765835, "confirmed": 400, "dead": 5, "recovered": 93, "updated": "2020-04-05 05:00:28.595496+00:00"}, {"location": "Montenegro", "latitude": 42.708678, "longitude": 19.37439, "confirmed": 201, "dead": 2, "recovered": 1, "updated": "2020-04-05 05:00:29.390775+00:00"}, {"location": "Bolivia", "latitude": -16.290154, "longitude": -63.588653, "confirmed": 157, "dead": 10, "recovered": 2, "updated": "2020-04-05 05:00:29.600906+00:00"}, {"location": "Kyrgyzstan", "latitude": 41.20438, "longitude": 74.766098, "confirmed": 144, "dead": 1, "recovered": 9, "updated": "2020-04-05 05:00:29.753749+00:00"}, {"location": "Jersey", "latitude": 49.214439, "longitude": -2.13125, "confirmed": 126, "dead": 3, "recovered": 0, "updated": "2020-04-05 05:00:30.018711+00:00"}, {"location": "Paraguay", "latitude": -23.442503, "longitude": -58.443832, "confirmed": 104, "dead": 3, "recovered": 12, "updated": "2020-04-05 05:00:30.212868+00:00"}, {"location": "Northern Cyprus", "latitude": 35.2480359, "longitude": 33.6577243, "confirmed": 88, "dead": 2, "recovered": 29, "updated": "2020-04-05 05:00:30.453961+00:00"}, {"location": "Liechtenstein", "latitude": 47.166, "longitude": 9.555373, "confirmed": 77, "dead": 1, "recovered": 0, "updated": "2020-04-05 05:00:30.459890+00:00"}, {"location": "Saint Martin", "latitude": 18.0708298, "longitude": -63.0500809, "confirmed": 24, "dead": 2, "recovered": 5, "updated": "2020-04-05 05:00:31.437045+00:00"}, {"location": "Cameroon", "latitude": 7.369722, "longitude": 12.354722, "confirmed": 555, "dead": 9, "recovered": 17, "updated": "2020-04-05 05:00:27.922175+00:00"}, {"location": "Macau", "latitude": 22.198745, "longitude": 113.543873, "confirmed": 44, "dead": 0, "recovered": 10, "updated": "2020-04-05 05:00:31.009950+00:00"}, {"location": "Belarus", "latitude": 53.709807, "longitude": 27.953389, "confirmed": 440, "dead": 5, "recovered": 53, "updated": "2020-04-05 05:00:28.445897+00:00"}, {"location": "Zambia", "latitude": -13.133897, "longitude": 27.849332, "confirmed": 39, "dead": 1, "recovered": 2, "updated": "2020-04-05 05:00:31.183202+00:00"}, {"location": "Cyprus", "latitude": 35.126413, "longitude": 33.429859, "confirmed": 426, "dead": 11, "recovered": 33, "updated": "2020-04-05 05:00:28.532465+00:00"}, {"location": "Cuba", "latitude": 21.521757, "longitude": -77.781167, "confirmed": 288, "dead": 6, "recovered": 15, "updated": "2020-04-05 05:00:28.872082+00:00"}, {"location": "Oman", "latitude": 21.4735329, "longitude": 55.975413, "confirmed": 277, "dead": 2, "recovered": 61, "updated": "2020-04-05 05:00:28.918315+00:00"}, {"location": "Honduras", "latitude": 15.199999, "longitude": -86.241905, "confirmed": 268, "dead": 22, "recovered": 6, "updated": "2020-04-05 05:00:28.957218+00:00"}, {"location": "Senegal", "latitude": 14.497401, "longitude": -14.452362, "confirmed": 219, "dead": 2, "recovered": 72, "updated": "2020-04-05 05:00:29.172007+00:00"}, {"location": "Nigeria", "latitude": 9.081999, "longitude": 8.675277, "confirmed": 214, "dead": 4, "recovered": 25, "updated": "2020-04-05 05:00:29.273514+00:00"}, {"location": "Malta", "latitude": 35.937496, "longitude": 14.375416, "confirmed": 213, "dead": 0, "recovered": 2, "updated": "2020-04-05 05:00:29.310323+00:00"}, {"location": "Ghana", "latitude": 7.946527, "longitude": -1.023194, "confirmed": 205, "dead": 5, "recovered": 31, "updated": "2020-04-05 05:00:29.351976+00:00"}, {"location": "Mauritius", "latitude": -20.348404, "longitude": 57.552152, "confirmed": 196, "dead": 7, "recovered": 7, "updated": "2020-04-05 05:00:29.432502+00:00"}, {"location": "Sri Lanka", "latitude": 7.873054, "longitude": 80.771797, "confirmed": 166, "dead": 5, "recovered": 27, "updated": "2020-04-05 05:00:29.515268+00:00"}, {"location": "Georgia", "latitude": 32.1656221, "longitude": -82.9000751, "confirmed": 162, "dead": 1, "recovered": 36, "updated": "2020-04-05 05:00:29.554491+00:00"}, {"location": "DR Congo", "latitude": -4.038333, "longitude": 21.758664, "confirmed": 154, "dead": 18, "recovered": 3, "updated": "2020-04-05 05:00:29.685074+00:00"}, {"location": "Kosovo", "latitude": 42.6026359, "longitude": 20.902977, "confirmed": 140, "dead": 1, "recovered": 23, "updated": "2020-04-05 05:00:29.844234+00:00"}, {"location": "Guernsey", "latitude": 49.4481982, "longitude": -2.58949, "confirmed": 136, "dead": 2, "recovered": 15, "updated": "2020-04-05 05:00:29.883333+00:00"}, {"location": "Brunei", "latitude": 4.535277, "longitude": 114.727669, "confirmed": 135, "dead": 1, "recovered": 66, "updated": "2020-04-05 05:00:29.913170+00:00"}, {"location": "Isle of Man", "latitude": 54.236107, "longitude": -4.548056, "confirmed": 126, "dead": 1, "recovered": 0, "updated": "2020-04-05 05:00:30.060867+00:00"}, {"location": "Guatemala", "latitude": 15.783471, "longitude": -90.230759, "confirmed": 61, "dead": 2, "recovered": 15, "updated": "2020-04-05 05:00:30.652958+00:00"}, {"location": "Jamaica", "latitude": 18.109581, "longitude": -77.297508, "confirmed": 55, "dead": 3, "recovered": 7, "updated": "2020-04-05 05:00:30.762492+00:00"}, {"location": "Barbados", "latitude": 13.193887, "longitude": -59.543198, "confirmed": 52, "dead": 0, "recovered": 0, "updated": "2020-04-05 05:00:30.807832+00:00"}]}